no,lat,lon,pref,state,category,id,name,indoor,opened,closed,patients,H,voice,loud,acph
1,43.058593,141.375052,北海道,札幌市,医療機関,5,北海道がんセンター,1,2020/4/27,2020/6/12,82,1,0,0,
2,43.040469,141.400723,北海道,札幌市,医療機関,5,札幌呼吸器科病院,1,2020/4/27,,51,1,0,0,
3,43.067735,141.369256,北海道,札幌市,医療機関,5,札幌厚生病院,1,2020/4/27,,10,1,0,0,
4,43.076953,141.359922,北海道,札幌市,運動施設,15,スポーツ教室（空手）,1,2020/4/27,,14,0,1,1,
5,43.06363,141.350214,北海道,札幌市,事業所,3,コールセンター(JPツーウェイコンタクト),1,2020/4/27,,19,0,1,0,
6,42.820528,141.647818,北海道,千歳市,医療機関,5,千歳第一病院,1,2020/4/27,,45,1,0,0,
7,44.062696,143.524303,北海道,遠軽町,医療機関,5,遠軽厚生病院,1,2020/4/27,,15,1,0,0,
8,42.827309,141.646814,北海道,千歳市,福祉施設,4,グループホーム,1,2020/4/27,,10,1,0,0,
10,42.846348,141.659903,北海道,千歳市,医療機関,5,北星病院,1,2020/4/27,,8,1,0,0,
11,42.829984,141.649603,北海道,千歳市,福祉施設,4,訪問看護ステーション,1,2020/4/27,,6,1,0,0,
12,42.979907,141.564202,北海道,北広島市,医療機関,5,北広島病院,1,2020/4/27,,4,1,0,0,
13,43.804749,143.831717,北海道,北見市,事業所,3,展示会,1,2020/2/13,,11,0,1,0,
14,43.163849,141.358774,北海道,札幌市,福祉施設,4,茨戸アカシアハイツ,1,2020/4/15,2020/5/24,92,1,0,0,
15,43.99436,143.538404,北海道,遠軽町,福祉施設,4,向陽園,1,2020/4/29,,9,1,0,0,
16,42.780708,141.592371,北海道,千歳市,福祉施設,4,グラン・セラ柏陽,1,2020/4/29,,20,1,0,0,
17,43.163686,141.358298,北海道,札幌市,福祉施設,4,茨戸デイケアセンター,1,2020/5/1,,5,1,0,0,
18,42.844053,141.63981,北海道,千歳市,医療機関,5,市立千歳市民病院,1,2020/5/3,,3,1,0,0,
19,43.087497,141.273151,北海道,札幌市,医療機関,5,北海道大野記念病院,1,2020/5/4,,2,1,0,0,
20,43.091672,141.403046,北海道,千歳市,医療機関,5,勤医協中央病院,1,2020/5/23,,17,1,0,0,
21,43.202942,141.756295,北海道,岩見沢市,事業所,3,美容室,1,2020/5/27,,7,0,1,0,
22,43.120864,141.317304,北海道,札幌市,飲食店,1,昼カラ喫茶 18店舗,1,2020/6/9,,60,0,1,1,
23,43.075695,141.364028,北海道,札幌市,事業所,3,北洋銀行光星支店,1,2020/6/10,,2,0,1,0,
24,43.189401,140.996575,北海道,小樽市,飲食店,1,昼カラスナック（花園地区）,1,2020/6/24,,42,0,1,1,
25,43.094847,141.303996,北海道,札幌市,福祉施設,4,かがやき八軒,1,2020/6/29,2020/8/6,21,1,0,0,
26,43.035,141.336622,北海道,札幌市,小学校,6,札幌市立伏見小学校,1,2020/7/12,,2,0,1,0,
27,43.055328,141.353125,北海道,札幌市,キャバクラ,2,ススキノのキャバクラ店,1,2020/7/15,,15,0,1,0,
28,42.834988,141.706946,北海道,千歳市,自衛隊,12,陸上自衛隊東千歳駐屯地,1,2020/7/18,,1,0,1,0,
29,43.053728,141.352588,北海道,札幌市,スナック,2,ススキノのスナック店,1,2020/7/21,,6,0,1,0,
30,43.07153,141.369143,北海道,札幌市,飲食店,1,サッポロビール園,1,2020/7/26,,7,0,1,1,
31,43.011329,141.367425,北海道,札幌市,医療機関,5,林下病院,1,2020/8/1,2020/8/30,33,1,0,0,
32,43.057612,141.355415,北海道,札幌市,事業所,3,ライブハウス,1,2020/8/1,,26,0,1,1,
33,43.188648,140.813407,北海道,余市町,医療機関,5,余市協会病院,1,2020/8/4,,4,1,0,0,
34,43.053689,141.351654,北海道,札幌市,事業所,3,アイドルグループイベント,1,2020/8/4,,1,0,1,1,
35,43.038387,141.369265,北海道,札幌市,事業所,3,平岸ハイヤー,1,2020/8/18,,3,0,1,0,
36,43.185777,141.007507,北海道,小樽市,医療機関,5,小樽市立病院,1,2020/8/20,2020/9/17,31,1,0,0,
37,43.067688,141.352768,北海道,札幌市,事業所,3,JRタワーエスタ,1,2020/8/27,,1,0,1,0,
38,43.066013,141.354419,北海道,札幌市,事業所,3,NTTドコモコールセンター,1,2020/8/28,2020/9/10,24,0,1,0,
39,43.054403,141.351333,北海道,札幌市,ニュークラブ,2,市20例目のススキノ関連,1,2020/9/8,,10,0,1,0,
40,43.053446,141.353993,北海道,札幌市,ニュークラブ,2,市21例目のススキノ関連,1,2020/9/6,2020/9/18,10,0,1,0,
41,43.05452,141.353843,北海道,札幌市,ホストクラブ,2,市22例目のススキノ関連,1,2020/9/19,,14,0,1,0,
42,43.055202,141.35468,北海道,札幌市,事業所,3,市23例目のライブハウス,1,2020/9/19,2020/10/1,7,0,1,1,
43,43.040361,141.329915,北海道,札幌市,福祉施設,4,ツクイ札幌山鼻グループホーム,1,2020/9/25,2020/10/3,15,1,0,0,
44,43.065029,141.352547,北海道,札幌市,事業所,4,映像制作会社(車移動有),1,2020/9/28,,8,0,0,0,
45,43.055336,141.351536,北海道,札幌市,ニュークラブ,2,市26例目のススキノ関連,1,2020/10/5,,23,0,1,0,
46,43.104359,141.32333,北海道,札幌市,小学校,6,札幌市立新琴似南小学校,1,2020/10/7,,2,0,1,0,
47,42.435819,141.109171,北海道,胆振,事業所,3,自動車部品工場(道41例目),1,2020/10/8,,6,0,0,0,
48,43.068962,141.359466,北海道,札幌市,福祉施設,4,市27例目の障害福祉事業所,1,2020/10/9,,5,1,0,0,
49,43.053817,141.355368,北海道,札幌市,ニュークラブ,2,市29例目のススキノ関連,1,2020/10/11,,16,0,1,0,
50,43.067175,141.341656,北海道,札幌市,専門学校,10,市30例目の専門学校,1,2020/10/11,2020/10/20,13,0,0,0,
51,43.033913,141.361788,北海道,札幌市,中学校,7,中の島中学校,1,2020/10/12,,1,0,1,0,
52,43.054127,141.348784,北海道,札幌市,飲食店,1,市31例のバー,1,2020/10/14,,8,0,1,0,
53,42.729182,141.575097,北海道,胆振,事業所,3,清掃関係事業所(道48例目),1,2020/10/14,,6,0,0,0,
54,42.994972,142.009022,北海道,夕張市,消防署,14,夕張市消防本部(道49例目),1,2020/10/15,,7,0,0,0,
55,42.343646,142.365445,北海道,新ひだか町,高校,8,静内高校(道50例目),1,2020/10/15,,22,0,1,0,
56,43.075763,141.320477,北海道,札幌市,福祉施設,4,市32例の有料老人ホーム,1,2020/10/17,,6,1,0,0,
57,43.051628,141.353551,北海道,札幌市,ニュークラブ,2,市33例のススキノ関連,1,2020/10/17,,13,0,1,0,
58,43.055908,141.353465,北海道,釧路市,ニュークラブ,2,ニュークラブ(53例目),1,2020/10/17,,5,0,1,0,
59,42.999641,144.360072,北海道,釧路市,福祉施設,4,特別養護老人ホーム(道53例目),1,2020/10/20,,14,1,0,0,
60,42.991069,144.383931,北海道,釧路市,飲食店,2,接待を伴う飲食店(道56例目),1,2020/10/20,,5,0,1,0,
61,43.175155,141.026885,北海道,小樽市,高校,8,小樽水産高校,1,2020/10/20,,2,0,1,0,
62,43.055235,141.352077,北海道,札幌市,ホストクラブ,2,ホストクラブ(55例目),1,2020/10/23,,5,0,1,0,
63,43.054781,141.354674,北海道,札幌市,メンズパブ,2,メンズパブ(56例目),1,2020/10/23,,6,0,1,0,
64,43.06906,141.365519,北海道,札幌市,福祉施設,4,グループホーム,1,2020/10/23,,5,1,0,0,
65,43.066395,141.350413,北海道,道内,バスツアー,3,読売旅行(GoToトラベル),1,2020/10/23,,12,0,0,0,
66,43.056769,141.351658,北海道,札幌市,ニュークラブ,2,ニュークラブ(58例目),1,2020/10/24,,6,0,1,0,
67,42.916677,143.2021,北海道,帯広市,事業所,3,帯広市図書館,1,2020/10/24,,3,0,1,0,
68,42.992911,141.45721,北海道,札幌市,小学校,6,清田区平岡南小学校,1,2020/10/24,,1,0,1,0,
69,43.056777,141.350944,北海道,札幌市,スナック,2,スナック(59例目),1,2020/10/25,,6,0,1,0,
70,43.089712,141.383368,北海道,札幌市,小学校,6,札幌市立開成小学校,1,2020/10/25,,1,0,1,0,
71,43.057488,141.355321,北海道,札幌市,事業所,3,芸能事務所『野外ライブイベント』,1,2020/10/26,,14,0,1,1,
72,43.048562,141.372317,北海道,札幌市,小学校,6,札幌市立豊平小学校,1,2020/10/26,,1,0,1,0,
73,43.065231,141.351377,北海道,札幌市,事業所,3,市43例目の商社,1,2020/10/30,,5,0,0,0,
74,43.066391,141.350561,北海道,札幌市,事業所,3,市44例目の結婚式場,1,2020/10/30,,9,0,1,0,
75,42.662323,141.608625,北海道,苫小牧市,高校,8,道立苫小牧工業高校,1,2020/10/30,,16,0,1,1,
76,43.062468,141.641864,北海道,空知地方,福祉施設,4,道71例目のグループホーム,1,2020/10/31,,5,1,0,0,
77,43.179923,141.018417,北海道,小樽市,中学校,7,小樽市立潮見台中学校,1,2020/10/31,,1,0,1,0,
78,43.082661,141.307689,北海道,札幌市,事業所,3,市47例目の食品関連会社,1,2020/11/1,,8,0,0,0,
79,42.998512,141.336876,北海道,札幌市,高校,8,藻岩高校,1,2020/11/1,,1,0,1,0,
80,43.154184,141.349916,北海道,札幌市,高校,8,豊明高等支援学校,1,2020/11/1,,1,0,1,0,
81,42.834587,141.69802,北海道,千歳市,自衛隊,12,陸上自衛隊東千歳駐屯地,1,2020/10/10,2020/10/23,6,0,1,0,
82,42.834587,141.70802,北海道,千歳市,自衛隊,12,陸上自衛隊東千歳駐屯地,1,2020/11/2,,5,0,1,0,
83,43.055453,141.333399,北海道,札幌市,医療機関,5,札幌医科大学附属病院,1,2020/11/5,,4,1,0,0,
84,43.036716,141.47113,北海道,札幌市,事業所,3,厚別郵便局,1,2020/11/6,,1,0,0,0,
